{
  "metadata": {
    "total_stores": 500,
    "last_updated": "2025-07-14T09:52:50Z",
    "data_source": "SmartStock Pro Network",
    "session_user": "vkhare2909"
  },
  "stores": [
    {
      "id": "WM001",
      "name": "Walmart Supercenter Gurgaon",
      "city": "Gurgaon",
      "state": "Haryana",
      "region": "north",
      "lat": 28.4595,
      "lng": 77.0266,
      "monthly_revenue": 85000000,
      "health_score": 92,
      "risk_level": "low",
      "inventory_turnover": 8.5,
      "stockout_incidents": 3,
      "overstock_value": 5000000,
      "store_size_sqft": 120000,
      "manager": "Raj Kumar Singh"
    },
    {
      "id": "WM002",
      "name": "Walmart Mumbai Central",
      "city": "Mumbai",
      "state": "Maharashtra",
      "region": "west",
      "lat": 19.076,
      "lng": 72.8777,
      "monthly_revenue": 95000000,
      "health_score": 89,
      "risk_level": "low",
      "inventory_turnover": 9.2,
      "stockout_incidents": 5,
      "overstock_value": 3200000,
      "store_size_sqft": 135000,
      "manager": "Priya Sharma"
    },
    {
      "id": "WM003",
      "name": "Walmart Bangalore Electronic City",
      "city": "Bangalore",
      "state": "Karnataka",
      "region": "south",
      "lat": 12.9716,
      "lng": 77.5946,
      "monthly_revenue": 78000000,
      "health_score": 85,
      "risk_level": "medium",
      "inventory_turnover": 7.8,
      "stockout_incidents": 8,
      "overstock_value": 6800000,
      "store_size_sqft": 110000,
      "manager": "Lakshmi Venkat"
    },
    {
      "id": "WM004",
      "name": "Walmart Chennai OMR",
      "city": "Chennai",
      "state": "Tamil Nadu",
      "region": "south",
      "lat": 13.0827,
      "lng": 80.2707,
      "monthly_revenue": 72000000,
      "health_score": 87,
      "risk_level": "medium",
      "inventory_turnover": 7.5,
      "stockout_incidents": 6,
      "overstock_value": 4500000,
      "store_size_sqft": 105000,
      "manager": "Rajesh Kumar"
    },
    {
      "id": "WM005",
      "name": "Walmart Delhi Connaught Place",
      "city": "Delhi",
      "state": "Delhi",
      "region": "north",
      "lat": 28.6139,
      "lng": 77.209,
      "monthly_revenue": 88000000,
      "health_score": 94,
      "risk_level": "low",
      "inventory_turnover": 9.8,
      "stockout_incidents": 2,
      "overstock_value": 2800000,
      "store_size_sqft": 125000,
      "manager": "Vikram Singh"
    },
    {
      "id": "WM006",
      "name": "Walmart Kolkata Park Street",
      "city": "Kolkata",
      "state": "West Bengal",
      "region": "east",
      "lat": 22.5726,
      "lng": 88.3639,
      "monthly_revenue": 65000000,
      "health_score": 78,
      "risk_level": "high",
      "inventory_turnover": 6.2,
      "stockout_incidents": 15,
      "overstock_value": 8500000,
      "store_size_sqft": 98000,
      "manager": "Amit Sarkar"
    },
    {
      "id": "WM007",
      "name": "Walmart Pune Baner",
      "city": "Pune",
      "state": "Maharashtra",
      "region": "west",
      "lat": 18.5204,
      "lng": 73.8567,
      "monthly_revenue": 71000000,
      "health_score": 83,
      "risk_level": "medium",
      "inventory_turnover": 7.1,
      "stockout_incidents": 9,
      "overstock_value": 5200000,
      "store_size_sqft": 108000,
      "manager": "Anita Pawar"
    },
    {
      "id": "WM008",
      "name": "Walmart Hyderabad Hitech City",
      "city": "Hyderabad",
      "state": "Telangana",
      "region": "south",
      "lat": 17.385,
      "lng": 78.4867,
      "monthly_revenue": 82000000,
      "health_score": 90,
      "risk_level": "low",
      "inventory_turnover": 8.7,
      "stockout_incidents": 4,
      "overstock_value": 3700000,
      "store_size_sqft": 118000,
      "manager": "Ramachandra Reddy"
    },
    {
      "id": "WM009",
      "name": "Walmart Ahmedabad SG Highway",
      "city": "Ahmedabad",
      "state": "Gujarat",
      "region": "west",
      "lat": 23.0225,
      "lng": 72.5714,
      "monthly_revenue": 69000000,
      "health_score": 81,
      "risk_level": "medium",
      "inventory_turnover": 6.9,
      "stockout_incidents": 11,
      "overstock_value": 6100000,
      "store_size_sqft": 102000,
      "manager": "Kiran Patel"
    },
    {
      "id": "WM010",
      "name": "Walmart Jaipur Malviya Nagar",
      "city": "Jaipur",
      "state": "Rajasthan",
      "region": "north",
      "lat": 26.9124,
      "lng": 75.7873,
      "monthly_revenue": 58000000,
      "health_score": 76,
      "risk_level": "high",
      "inventory_turnover": 5.8,
      "stockout_incidents": 18,
      "overstock_value": 9200000,
      "store_size_sqft": 92000,
      "manager": "Suresh Sharma"
    }
  ]
}
